{"Vilnius":{"name":"Vilnius","formatted_address":"Vilnius, Lithuania","location":{"lat":54.6871555,"lng":25.2796514}},"\u0160iauliai":{"name":"\u0160iauliai","formatted_address":"\u0160iauliai, Lithuania","location":{"lat":55.9349085,"lng":23.3136823}},"Ukmerg\u0117":{"name":"Ukmerg\u0117","formatted_address":"Ukmerg\u0117, Lithuania","location":{"lat":55.245265,"lng":24.776075}},"Panev\u0117\u017eys":{"name":"Panev\u0117\u017eys","formatted_address":"Panev\u0117\u017eys, Lithuania","location":{"lat":55.7347915,"lng":24.3574774}},"Alytus":{"name":"Alytus","formatted_address":"Alytus, Lithuania","location":{"lat":54.3962938,"lng":24.045876}},"Utena":{"name":"Utena","formatted_address":"Utena, Lithuania","location":{"lat":55.5000404,"lng":25.609385}},"Anyk\u0161\u010diai":{"name":"Anyk\u0161\u010diai","formatted_address":"Anyk\u0161\u010diai, Lithuania","location":{"lat":55.529102,"lng":25.1131859}},"K\u0117dainiai":{"name":"K\u0117dainiai","formatted_address":"K\u0117dainiai, Lithuania","location":{"lat":55.2881309,"lng":23.9577279}},"Tel\u0161iai":{"name":"Tel\u0161iai","formatted_address":"Tel\u0161iai, Lithuania","location":{"lat":55.9869779,"lng":22.2485534}},"Klaip\u0117da":{"name":"Klaip\u0117da","formatted_address":"Klaip\u0117da, Lithuania","location":{"lat":55.7032948,"lng":21.1442794}}}